{"type":"FeatureCollection","features":[{"type":"Feature","id":1,"geometry":{"type":"Point","coordinates":[-4.2807387479999761,55.867084551000062]},"properties":{"OBJECTID":1,"POI_NAME":"Kelvingrove Park Play Area (East)","POI_TYPE":"Entertainment and Recreation","lng":-4.2807387479999761,"lat":55.867084551000062,"POI_ADDRESS":"Kelvingrove Park, Glasgow","POI_DESCRIPTION":"A playground suitable for children, equipped with slides, swings, and other facilities.","POINTID":1,"POI_IMG":"poi_001.JPG"}},{"type":"Feature","id":2,"geometry":{"type":"Point","coordinates":[-4.2838197509999532,55.868058628000028]},"properties":{"OBJECTID":2,"POI_NAME":"Stewart Memorial Fountain","POI_TYPE":"Tourist Attraction","lng":-4.2838197509999532,"lat":55.868058628000028,"POI_ADDRESS":"Kelvingrove Park, Glasgow","POI_DESCRIPTION":"A memorial fountain, with numerous benches around it to provide seating for visitors.","POINTID":2,"POI_IMG":"poi_002.JPG"}},{"type":"Feature","id":3,"geometry":{"type":"Point","coordinates":[-4.2859076529999811,55.868071067000074]},"properties":{"OBJECTID":3,"POI_NAME":"Kelvingrove Skatepark","POI_TYPE":"Entertainment and Recreation","lng":-4.2859076529999811,"lat":55.868071067000074,"POI_ADDRESS":"Kelvingrove Park, Glasgow","POI_DESCRIPTION":"This skatepark is kid-friendly and has areas designed for skateboarding.","POINTID":3,"POI_IMG":"poi_003.JPG"}},{"type":"Feature","id":4,"geometry":{"type":"Point","coordinates":[-4.2853218009999523,55.868317827000055]},"properties":{"OBJECTID":4,"POI_NAME":"Kelvingrove Park Play Area (West)","POI_TYPE":"Entertainment and Recreation","lng":-4.2853218009999523,"lat":55.868317827000055,"POI_ADDRESS":"Kelvingrove Park, Glasgow","POI_DESCRIPTION":"A playground suitable for children, equipped with slides, swings, and other facilities.","POINTID":4,"POI_IMG":"poi_004.JPG"}},{"type":"Feature","id":5,"geometry":{"type":"Point","coordinates":[-4.2850566379999577,55.868294131000027]},"properties":{"OBJECTID":5,"POI_NAME":"Kelvingrove Park Playground","POI_TYPE":"Entertainment and Recreation","lng":-4.2850566379999577,"lat":55.868294131000027,"POI_ADDRESS":"Kelvingrove Park, Glasgow","POI_DESCRIPTION":"A playground suitable for children, equipped with slides, swings, and other facilities.","POINTID":5,"POI_IMG":"poi_005.JPG"}},{"type":"Feature","id":6,"geometry":{"type":"Point","coordinates":[-4.2845721989999674,55.868836595000062]},"properties":{"OBJECTID":6,"POI_NAME":"Cyprus Duck Pond","POI_TYPE":"Tourist Attraction","lng":-4.2845721989999674,"lat":55.868836595000062,"POI_ADDRESS":"Kelvingrove Park, Glasgow","POI_DESCRIPTION":"The Cyprus Duck Pond is known for its unique Cyprus-shaped island and rich waterbird wildlife.","POINTID":6,"POI_IMG":"poi_006.JPG"}},{"type":"Feature","id":7,"geometry":{"type":"Point","coordinates":[-4.2824264019999418,55.868429208000066]},"properties":{"OBJECTID":7,"POI_NAME":"Tigress and Cubs","POI_TYPE":"Tourist Attraction","lng":-4.2824264019999418,"lat":55.868429208000066,"POI_ADDRESS":"Kelvingrove Park, Glasgow","POI_DESCRIPTION":"A sculpture titled Tigress and Cubs.","POINTID":7,"POI_IMG":"poi_007.JPG"}},{"type":"Feature","id":8,"geometry":{"type":"Point","coordinates":[-4.2838295929999504,55.870270153000035]},"properties":{"OBJECTID":8,"POI_NAME":"South African War Memorial","POI_TYPE":"Tourist Attraction","lng":-4.2838295929999504,"lat":55.870270153000035,"POI_ADDRESS":"Kelvingrove Park, Glasgow","POI_DESCRIPTION":"A memorial monument commemorating the South African War.","POINTID":8,"POI_IMG":"poi_008.JPG"}},{"type":"Feature","id":9,"geometry":{"type":"Point","coordinates":[-4.2818396929999381,55.870315249000043]},"properties":{"OBJECTID":9,"POI_NAME":"Lord Roberts Monument","POI_TYPE":"Tourist Attraction","lng":-4.2818396929999381,"lat":55.870315249000043,"POI_ADDRESS":"Kelvingrove Park, Glasgow","POI_DESCRIPTION":"The Lord Roberts Monument is a memorial dedicated to Lord Roberts, a prominent British military leader.","POINTID":9,"POI_IMG":"poi_009.JPG"}},{"type":"Feature","id":10,"geometry":{"type":"Point","coordinates":[-4.2808067459999393,55.871133680000071]},"properties":{"OBJECTID":10,"POI_NAME":"Kelvingrove Football Pitch","POI_TYPE":"Sports","lng":-4.2808067459999393,"lat":55.871133680000071,"POI_ADDRESS":"Kelvingrove Park, Glasgow","POI_DESCRIPTION":"A football pitch","POINTID":10,"POI_IMG":"poi_010.JPG"}},{"type":"Feature","id":11,"geometry":{"type":"Point","coordinates":[-4.2844615109999609,55.870390709000048]},"properties":{"OBJECTID":11,"POI_NAME":"Prince of Wales Bridge","POI_TYPE":"Transportation","lng":-4.2844615109999609,"lat":55.870390709000048,"POI_ADDRESS":"Kelvingrove Park, Glasgow","POI_DESCRIPTION":"The Prince of Wales Bridge is a stone bridge of historical significance.","POINTID":11,"POI_IMG":"poi_011.JPG"}},{"type":"Feature","id":12,"geometry":{"type":"Point","coordinates":[-4.2857501639999782,55.869434357000046]},"properties":{"OBJECTID":12,"POI_NAME":"Kelvingrove Bandstand","POI_TYPE":"Entertainment and Recreation","lng":-4.2857501639999782,"lat":55.869434357000046,"POI_ADDRESS":"Kelvingrove Park, Glasgow","POI_DESCRIPTION":"The Kelvingrove Bandstand is a historic performance venue frequently utilized for outdoor concerts, theatrical productions, and community events.","POINTID":12,"POI_IMG":"poi_012.JPG"}},{"type":"Feature","id":13,"geometry":{"type":"Point","coordinates":[-4.28751058499995,55.869179015000043]},"properties":{"OBJECTID":13,"POI_NAME":"Kelvingrove Dog Park","POI_TYPE":"Entertainment and Recreation","lng":-4.28751058499995,"lat":55.869179015000043,"POI_ADDRESS":"Kelvingrove Park, Glasgow","POI_DESCRIPTION":"A designated open area specifically designed for dogs, providing a safe environment for pets to play and socialize.","POINTID":13,"POI_IMG":"poi_013.JPG"}},{"type":"Feature","id":14,"geometry":{"type":"Point","coordinates":[-4.2877111829999421,55.869538010000042]},"properties":{"OBJECTID":14,"POI_NAME":"Lord Lister Monument","POI_TYPE":"Tourist Attraction","lng":-4.2877111829999421,"lat":55.869538010000042,"POI_ADDRESS":"Kelvingrove Park, Glasgow","POI_DESCRIPTION":"The Lord Lister Monument is a sculpture commemorating Sir Joseph Lister, a pioneer of modern antiseptic surgery.","POINTID":14,"POI_IMG":"poi_014.JPG"}},{"type":"Feature","id":15,"geometry":{"type":"Point","coordinates":[-4.2870234409999739,55.869740818000082]},"properties":{"OBJECTID":15,"POI_NAME":"Statue of Lord Kelvin","POI_TYPE":"Tourist Attraction","lng":-4.2870234409999739,"lat":55.869740818000082,"POI_ADDRESS":"Kelvingrove Park, Glasgow","POI_DESCRIPTION":"The statue of Lord Kelvin honors physicist William Thomson for his contributions to thermodynamics and electromagnetism.","POINTID":15,"POI_IMG":"poi_015.JPG"}},{"type":"Feature","id":16,"geometry":{"type":"Point","coordinates":[-4.2882981689999724,55.869417780000049]},"properties":{"OBJECTID":16,"POI_NAME":"The Psalmist Sculpture","POI_TYPE":"Tourist Attraction","lng":-4.2882981689999724,"lat":55.869417780000049,"POI_ADDRESS":"Kelvingrove Park, Glasgow","POI_DESCRIPTION":"The Psalmist is a semi-abstract sculpture composed of stick-like human forms.","POINTID":16,"POI_IMG":"poi_016.JPG"}},{"type":"Feature","id":17,"geometry":{"type":"Point","coordinates":[-4.2935534579999626,55.869761488000051]},"properties":{"OBJECTID":17,"POI_NAME":"Snow Bridge","POI_TYPE":"Transportation","lng":-4.2935534579999626,"lat":55.869761488000051,"POI_ADDRESS":"Kelvingrove Park, Glasgow","POI_DESCRIPTION":"The Snow Bridge  is a stone bridge of historical significance.","POINTID":17,"POI_IMG":"poi_017.JPG"}},{"type":"Feature","id":18,"geometry":{"type":"Point","coordinates":[-4.2921864419999451,55.869388621000041]},"properties":{"OBJECTID":18,"POI_NAME":"Cameronians War Memorial","POI_TYPE":"Tourist Attraction","lng":-4.2921864419999451,"lat":55.869388621000041,"POI_ADDRESS":"Kelvingrove Park, Glasgow","POI_DESCRIPTION":"The Cameronians War Memorial honors the members of the regiment who fell during the First and Second World Wars.","POINTID":18,"POI_IMG":"poi_018.JPG"}},{"type":"Feature","id":19,"geometry":{"type":"Point","coordinates":[-4.2906241599999362,55.868568382000035]},"properties":{"OBJECTID":19,"POI_NAME":"Kelvingrove Art Gallery and Museum","POI_TYPE":"Culture","lng":-4.2906241599999362,"lat":55.868568382000035,"POI_ADDRESS":"Kelvingrove Park, Glasgow","POI_DESCRIPTION":"Kelvingrove Art Gallery and Museum is one of Glasgow’s most popular museums, featuring diverse collections spanning art, history, and natural sciences.","POINTID":19,"POI_IMG":"poi_019.JPG"}},{"type":"Feature","id":20,"geometry":{"type":"Point","coordinates":[-4.2873255379999478,55.867120726000053]},"properties":{"OBJECTID":20,"POI_NAME":"Kelvingrove Lawn Bowls and Tennis Centre","POI_TYPE":"Sports","lng":-4.2873255379999478,"lat":55.867120726000053,"POI_ADDRESS":"Kelvingrove Park, Glasgow","POI_DESCRIPTION":"Kelvingrove Lawn Bowls and Tennis Centre is a multi-purpose sports venue with lawn bowls greens and several outdoor tennis courts.","POINTID":20,"POI_IMG":"poi_020.JPG"}},{"type":"Feature","id":21,"geometry":{"type":"Point","coordinates":[-4.280087587999958,55.86700006500007]},"properties":{"OBJECTID":21,"POI_NAME":"An Clachan Cafe","POI_TYPE":"Food and Drink","lng":-4.280087587999958,"lat":55.86700006500007,"POI_ADDRESS":"Kelvingrove Park, Glasgow","POI_DESCRIPTION":"An\u202FClachan\u202FCafe is a small café offering homemade meals and coffee, ideal for family visits and pet-friendly gatherings.","POINTID":21,"POI_IMG":"poi_021.JPG"}},{"type":"Feature","id":22,"geometry":{"type":"Point","coordinates":[-4.2876181339999562,55.86812936900003]},"properties":{"OBJECTID":22,"POI_NAME":"Kelvin Way Bridge","POI_TYPE":"Transportation","lng":-4.2876181339999562,"lat":55.86812936900003,"POI_ADDRESS":"Kelvingrove Park, Glasgow","POI_DESCRIPTION":"The Kelvin Way Bridge  is a stone bridge of historical significance.","POINTID":22,"POI_IMG":"poi_022.JPG"}},{"type":"Feature","id":23,"geometry":{"type":"Point","coordinates":[-4.2858873339999377,55.86991342400006]},"properties":{"OBJECTID":23,"POI_NAME":"Public Toilet","POI_TYPE":"Facilities","lng":-4.2858873339999377,"lat":55.86991342400006,"POI_ADDRESS":"Kelvingrove Park, Glasgow","POI_DESCRIPTION":"A Public Toilet","POINTID":23,"POI_IMG":"poi_023.JPG"}},{"type":"Feature","id":24,"geometry":{"type":"Point","coordinates":[-4.2895421069999315,55.868962176000082]},"properties":{"OBJECTID":24,"POI_NAME":"Kelvingrove Art Gallery and Museum car park","POI_TYPE":"Transportation","lng":-4.2895421069999315,"lat":55.868962176000082,"POI_ADDRESS":"Kelvingrove Art Gallery and Museum, Glasgow","POI_DESCRIPTION":"Kelvingrove Art Gallery and Museum has a public car park that provides convenient parking for visitors to the museum and surrounding attractions.","POINTID":24,"POI_IMG":"poi_024.JPG"}},{"type":"Feature","id":25,"geometry":{"type":"Point","coordinates":[-4.2890869699999712,55.868462735000037]},"properties":{"OBJECTID":25,"POI_NAME":"Chargeplace Scotland Charging Station","POI_TYPE":"Transportation","lng":-4.2890869699999712,"lat":55.868462735000037,"POI_ADDRESS":"Kelvingrove Art Gallery and Museum, Glasgow","POI_DESCRIPTION":"The ChargePlace Scotland charging station is a public EV charging facility located at the Kelvingrove Art Gallery and Museum car park","POINTID":25,"POI_IMG":"poi_025.JPG"}}]}